[
  {
    "slug": "alcazar-garden",
    "name": "Alcazar Garden",
    "displayName": "Alcazar Garden",
    "area": "palisades",
    "type": "garden",
    "address": "2100 Pan American Rd, San Diego, CA 92101",
    "lat": 32.73113,
    "lng": -117.15159,
    "websiteUrl": "https://balboapark.org/explore/alcazar-garden",
    "hours": "Dawn–Dusk",
    "popularityRank": 35
  },
  {
    "slug": "arizona-street-landfill-park",
    "name": "Arizona Street Landfill Park",
    "displayName": "Arizona Landfill Park",
    "area": "east_mesa",
    "type": "recreation",
    "address": "Arizona St, San Diego, CA 92104",
    "lat": 32.734,
    "lng": -117.141,
    "websiteUrl": "",
    "hours": "Dawn–Dusk",
    "popularityRank": 66
  },
  {
    "slug": "australian-garden",
    "name": "Australian Garden",
    "displayName": "Australian Garden",
    "area": "palisades",
    "type": "garden",
    "address": "2150 Pan American Rd, San Diego, CA 92101",
    "lat": 32.7314,
    "lng": -117.15044,
    "websiteUrl": "https://balboapark.org",
    "hours": "Dawn–Dusk",
    "popularityRank": 44
  },
  {
    "slug": "balboa-park-carousel",
    "name": "Balboa Park Carousel",
    "displayName": "Carousel",
    "area": "central_mesa",
    "type": "recreation",
    "address": "1889 Zoo Pl, San Diego, CA 92101",
    "lat": 32.73458,
    "lng": -117.14666,
    "websiteUrl": "https://balboapark.org/explore/balboa-park-carousel",
    "hours": "Sat–Sun 11am–5:30pm",
    "popularityRank": 17
  },
  {
    "slug": "balboa-park-club",
    "name": "Balboa Park Club",
    "displayName": "Balboa Park Club",
    "area": "palisades",
    "type": "landmark",
    "address": "2150 Pan American Plaza, San Diego, CA 92101",
    "lat": 32.72901,
    "lng": -117.15363,
    "websiteUrl": "https://balboapark.org",
    "popularityRank": 64
  },
  {
    "slug": "craft-coffee",
    "name": "Balboa Park Craft Coffee",
    "displayName": "Craft Coffee",
    "area": "central_mesa",
    "type": "dining",
    "address": "1889 Zoo Pl, San Diego, CA 92101",
    "lat": 32.73384,
    "lng": -117.14769,
    "websiteUrl": "",
    "popularityRank": 42
  },
  {
    "slug": "balboa-park-dog-park",
    "name": "Balboa Park Dog Park (Nate's Point)",
    "displayName": "Nate's Point Dog Park",
    "area": "palisades",
    "type": "recreation",
    "address": "2167 6th Ave, San Diego, CA 92101",
    "lat": 32.73058,
    "lng": -117.15656,
    "websiteUrl": "https://balboapark.org",
    "hours": "Dawn–Dusk",
    "popularityRank": 29
  },
  {
    "slug": "balboa-park-miniature-train",
    "name": "Balboa Park Miniature Railroad",
    "displayName": "Miniature Railroad",
    "area": "central_mesa",
    "type": "recreation",
    "address": "1800 Zoo Pl, San Diego, CA 92101",
    "lat": 32.73474,
    "lng": -117.14812,
    "websiteUrl": "https://bfrr.org",
    "hours": "Sat–Sun 11am–4:30pm",
    "popularityRank": 21
  },
  {
    "slug": "municipal-gymnasium",
    "name": "Balboa Park Municipal Gymnasium",
    "displayName": "Municipal Gymnasium",
    "area": "pan_american",
    "type": "recreation",
    "address": "2111 Pan American Plaza, San Diego, CA 92101",
    "lat": 32.72913,
    "lng": -117.14721,
    "websiteUrl": "https://www.sandiego.gov",
    "popularityRank": 54
  },
  {
    "slug": "balboa-park-visitor-center",
    "name": "Balboa Park Visitor Center",
    "displayName": "Visitor Center",
    "area": "central_mesa",
    "type": "landmark",
    "address": "1549 El Prado, San Diego, CA 92101",
    "lat": 32.73097,
    "lng": -117.14968,
    "websiteUrl": "https://balboapark.org/plan-your-visit",
    "hours": "9:30am–4:30pm daily",
    "popularityRank": 12
  },
  {
    "slug": "botanical-building",
    "name": "Botanical Building & Lily Pond",
    "displayName": "Botanical Building",
    "area": "central_mesa",
    "type": "garden",
    "address": "1549 El Prado, San Diego, CA 92101",
    "lat": 32.73252,
    "lng": -117.14923,
    "websiteUrl": "https://balboapark.org/explore/botanical-building",
    "hours": "10am–4pm daily",
    "popularityRank": 2
  },
  {
    "slug": "cabrillo-bridge",
    "name": "Cabrillo Bridge",
    "displayName": "Cabrillo Bridge",
    "area": "central_mesa",
    "type": "landmark",
    "address": "Cabrillo Bridge, San Diego, CA 92101",
    "lat": 32.7318,
    "lng": -117.1584,
    "websiteUrl": "https://balboapark.org",
    "popularityRank": 18
  },
  {
    "slug": "california-tower",
    "name": "California Tower",
    "displayName": "California Tower",
    "area": "central_mesa",
    "type": "landmark",
    "address": "1350 El Prado, San Diego, CA 92101",
    "lat": 32.73148,
    "lng": -117.15255,
    "websiteUrl": "https://www.museumofus.org",
    "popularityRank": 19
  },
  {
    "slug": "canyonside-community-park",
    "name": "Canyonside Community Park",
    "displayName": "Canyonside Park",
    "area": "florida_canyon",
    "type": "recreation",
    "address": "Pershing Dr, San Diego, CA 92101",
    "lat": 32.7355,
    "lng": -117.1435,
    "websiteUrl": "",
    "hours": "Dawn–Dusk",
    "popularityRank": 67
  },
  {
    "slug": "casa-de-balboa",
    "name": "Casa de Balboa",
    "displayName": "Casa de Balboa",
    "area": "central_mesa",
    "type": "landmark",
    "address": "1649 El Prado, San Diego, CA 92101",
    "lat": 32.73116,
    "lng": -117.1488,
    "websiteUrl": "https://balboapark.org",
    "popularityRank": 22
  },
  {
    "slug": "casa-del-prado",
    "name": "Casa del Prado",
    "displayName": "Casa del Prado",
    "area": "central_mesa",
    "type": "landmark",
    "address": "1650 El Prado, San Diego, CA 92101",
    "lat": 32.73249,
    "lng": -117.14839,
    "websiteUrl": "https://balboapark.org",
    "popularityRank": 25
  },
  {
    "slug": "centro-cultural-de-la-raza",
    "name": "Centro Cultural de la Raza",
    "displayName": "Centro Cultural",
    "area": "pan_american",
    "type": "museum",
    "address": "2004 Park Blvd, San Diego, CA 92101",
    "lat": 32.72772,
    "lng": -117.14866,
    "websiteUrl": "https://centroraza.com",
    "hours": "Tue–Sun 12–4pm",
    "popularityRank": 41
  },
  {
    "slug": "desert-garden",
    "name": "Desert Garden",
    "displayName": "Desert Garden",
    "area": "central_mesa",
    "type": "garden",
    "address": "Park Blvd, San Diego, CA 92101",
    "lat": 32.73211,
    "lng": -117.14565,
    "websiteUrl": "https://balboapark.org",
    "hours": "Dawn–Dusk",
    "popularityRank": 27
  },
  {
    "slug": "el-prado-walkway",
    "name": "El Prado Walkway",
    "displayName": "El Prado",
    "area": "central_mesa",
    "type": "landmark",
    "address": "El Prado, San Diego, CA 92101",
    "lat": 32.732,
    "lng": -117.15,
    "websiteUrl": "https://balboapark.org",
    "popularityRank": 23
  },
  {
    "slug": "fleet-science-center",
    "name": "Fleet Science Center",
    "displayName": "Fleet Science Center",
    "area": "central_mesa",
    "type": "museum",
    "address": "1875 El Prado, San Diego, CA 92101",
    "lat": 32.73082,
    "lng": -117.14707,
    "websiteUrl": "https://www.fleetscience.org",
    "hours": "10am–5pm daily",
    "popularityRank": 3
  },
  {
    "slug": "florida-canyon-native-plant-garden",
    "name": "Florida Canyon Native Plant Garden",
    "displayName": "Native Plant Garden",
    "area": "florida_canyon",
    "type": "garden",
    "address": "Morley Field Dr, San Diego, CA 92104",
    "lat": 32.7358,
    "lng": -117.144,
    "websiteUrl": "https://balboapark.org",
    "hours": "Dawn–Dusk",
    "popularityRank": 68
  },
  {
    "slug": "florida-canyon-nature-center",
    "name": "Florida Canyon Nature Center",
    "displayName": "Florida Canyon",
    "area": "florida_canyon",
    "type": "landmark",
    "address": "Morley Field Dr, San Diego, CA 92104",
    "lat": 32.736,
    "lng": -117.144,
    "websiteUrl": "https://balboapark.org",
    "popularityRank": 69
  },
  {
    "slug": "food-truck-alley",
    "name": "Food Truck Alley",
    "displayName": "Food Trucks",
    "area": "central_mesa",
    "type": "dining",
    "address": "Zoo Pl, San Diego, CA 92101",
    "lat": 32.7342,
    "lng": -117.1465,
    "websiteUrl": "",
    "popularityRank": 28
  },
  {
    "slug": "house-of-hospitality",
    "name": "House of Hospitality",
    "displayName": "House of Hospitality",
    "area": "central_mesa",
    "type": "landmark",
    "address": "1549 El Prado, San Diego, CA 92101",
    "lat": 32.73097,
    "lng": -117.14968,
    "websiteUrl": "https://balboapark.org",
    "popularityRank": 59
  },
  {
    "slug": "international-cottages",
    "name": "House of Pacific Relations International Cottages",
    "displayName": "International Cottages",
    "area": "palisades",
    "type": "landmark",
    "address": "2191 Pan American Rd, San Diego, CA 92101",
    "lat": 32.7289,
    "lng": -117.1522,
    "websiteUrl": "https://www.sdhpr.org",
    "popularityRank": 31
  },
  {
    "slug": "inez-grant-parker-memorial-rose-garden",
    "name": "Inez Grant Parker Memorial Rose Garden",
    "displayName": "Rose Garden",
    "area": "central_mesa",
    "type": "garden",
    "address": "Park Blvd, San Diego, CA 92101",
    "lat": 32.73119,
    "lng": -117.14568,
    "websiteUrl": "https://balboapark.org",
    "hours": "Dawn–Dusk",
    "popularityRank": 16
  },
  {
    "slug": "japanese-friendship-garden",
    "name": "Japanese Friendship Garden",
    "displayName": "Japanese Friendship Garden",
    "area": "palisades",
    "type": "garden",
    "address": "2215 Pan American Rd, San Diego, CA 92101",
    "lat": 32.72943,
    "lng": -117.14917,
    "websiteUrl": "https://www.niwa.org",
    "hours": "10am–6pm daily",
    "popularityRank": 8
  },
  {
    "slug": "tea-pavilion",
    "name": "Japanese Friendship Garden Tea Pavilion",
    "displayName": "Tea Pavilion",
    "area": "palisades",
    "type": "dining",
    "address": "2215 Pan American Rd, San Diego, CA 92101",
    "lat": 32.73011,
    "lng": -117.14998,
    "websiteUrl": "https://www.niwa.org",
    "hours": "10am–5pm daily",
    "popularityRank": 43
  },
  {
    "slug": "puppet-theater",
    "name": "Marie Hitchcock Puppet Theater",
    "displayName": "Puppet Theater",
    "area": "palisades",
    "type": "theater",
    "address": "2130 Pan American Plaza, San Diego, CA 92101",
    "lat": 32.72827,
    "lng": -117.1536,
    "websiteUrl": "https://www.bfrr.org",
    "hours": "Fri–Sun, shows at 11am, 1pm & 3pm",
    "popularityRank": 30
  },
  {
    "slug": "mingei-international-museum",
    "name": "Mingei International Museum",
    "displayName": "Mingei Museum",
    "area": "palisades",
    "type": "museum",
    "address": "1439 El Prado, San Diego, CA 92101",
    "lat": 32.73101,
    "lng": -117.15103,
    "websiteUrl": "https://www.mingei.org",
    "hours": "Tue–Sun 10am–5pm",
    "popularityRank": 10
  },
  {
    "slug": "morley-field-baseball",
    "name": "Morley Field Baseball Diamonds",
    "displayName": "Baseball Diamonds",
    "area": "morley_field",
    "type": "recreation",
    "address": "Morley Field Dr, San Diego, CA 92104",
    "lat": 32.7392,
    "lng": -117.1425,
    "websiteUrl": "",
    "hours": "Dawn–Dusk",
    "popularityRank": 71
  },
  {
    "slug": "morley-field-disc-golf",
    "name": "Morley Field Disc Golf Course",
    "displayName": "Disc Golf",
    "area": "morley_field",
    "type": "recreation",
    "address": "2300 Morley Field Dr, San Diego, CA 92104",
    "lat": 32.73762,
    "lng": -117.13576,
    "websiteUrl": "https://bfrr.org",
    "hours": "Dawn–Dusk",
    "popularityRank": 72
  },
  {
    "slug": "morley-field-pool",
    "name": "Morley Field Pool",
    "displayName": "Bud Kearns Pool",
    "area": "morley_field",
    "type": "recreation",
    "address": "2229 Morley Field Dr, San Diego, CA 92104",
    "lat": 32.7395,
    "lng": -117.142,
    "websiteUrl": "https://www.sandiego.gov",
    "popularityRank": 73
  },
  {
    "slug": "morley-field-tennis",
    "name": "Morley Field Tennis Center",
    "displayName": "Tennis Center",
    "area": "morley_field",
    "type": "recreation",
    "address": "2221 Morley Field Dr, San Diego, CA 92104",
    "lat": 32.739,
    "lng": -117.141,
    "websiteUrl": "https://www.bfrr.org",
    "hours": "Dawn–Dusk",
    "popularityRank": 74
  },
  {
    "slug": "museum-of-photographic-arts",
    "name": "Museum of Photographic Arts",
    "displayName": "Photo Arts Museum",
    "area": "central_mesa",
    "type": "museum",
    "address": "1649 El Prado, San Diego, CA 92101",
    "lat": 32.73116,
    "lng": -117.14889,
    "websiteUrl": "https://mopa.org",
    "hours": "Thu–Sun 11am–5pm",
    "popularityRank": 34
  },
  {
    "slug": "museum-of-us",
    "name": "Museum of Us",
    "displayName": "Museum of Us",
    "area": "central_mesa",
    "type": "museum",
    "address": "1350 El Prado, San Diego, CA 92101",
    "lat": 32.73148,
    "lng": -117.15255,
    "websiteUrl": "https://www.museumofus.org",
    "hours": "10am–5pm daily",
    "popularityRank": 5
  },
  {
    "slug": "palm-canyon",
    "name": "Palm Canyon",
    "displayName": "Palm Canyon",
    "area": "palisades",
    "type": "garden",
    "address": "Pan American Rd, San Diego, CA 92101",
    "lat": 32.7304,
    "lng": -117.152,
    "websiteUrl": "https://balboapark.org",
    "hours": "Dawn–Dusk",
    "popularityRank": 36
  },
  {
    "slug": "pan-american-community-park",
    "name": "Pan American Community Park",
    "displayName": "Pan American Park",
    "area": "pan_american",
    "type": "recreation",
    "address": "Pan American Rd, San Diego, CA 92101",
    "lat": 32.729,
    "lng": -117.149,
    "websiteUrl": "",
    "hours": "Dawn–Dusk",
    "popularityRank": 63
  },
  {
    "slug": "panama-66",
    "name": "Panama 66",
    "displayName": "Panama 66",
    "area": "central_mesa",
    "type": "dining",
    "address": "1450 El Prado, San Diego, CA 92101",
    "lat": 32.73176,
    "lng": -117.15103,
    "websiteUrl": "https://www.panama66.com",
    "hours": "Mon–Fri 11am–6pm, Sat–Sun 10am–8pm",
    "popularityRank": 24
  },
  {
    "slug": "redwood-circle",
    "name": "Redwood Circle",
    "displayName": "Redwood Circle",
    "area": "central_mesa",
    "type": "garden",
    "address": "Cabrillo Bridge area, San Diego, CA 92101",
    "lat": 32.73332,
    "lng": -117.15709,
    "websiteUrl": "https://balboapark.org",
    "hours": "Dawn–Dusk",
    "popularityRank": 60
  },
  {
    "slug": "san-diego-air-space-museum",
    "name": "San Diego Air & Space Museum",
    "displayName": "Air & Space Museum",
    "area": "pan_american",
    "type": "museum",
    "address": "2001 Pan American Plaza, San Diego, CA 92101",
    "lat": 32.72624,
    "lng": -117.15441,
    "websiteUrl": "https://www.sandiegoairandspace.org",
    "hours": "10am–4:30pm daily",
    "popularityRank": 11
  },
  {
    "slug": "san-diego-automotive-museum",
    "name": "San Diego Automotive Museum",
    "displayName": "Automotive Museum",
    "area": "pan_american",
    "type": "museum",
    "address": "2080 Pan American Plaza, San Diego, CA 92101",
    "lat": 32.72749,
    "lng": -117.15391,
    "websiteUrl": "https://www.sdautomuseum.org",
    "hours": "Tue–Sun 10am–5pm",
    "popularityRank": 32
  },
  {
    "slug": "san-diego-hall-of-champions",
    "name": "San Diego Hall of Champions",
    "displayName": "Hall of Champions",
    "area": "pan_american",
    "type": "museum",
    "address": "2131 Pan American Plaza, San Diego, CA 92101",
    "lat": 32.7295,
    "lng": -117.1485,
    "websiteUrl": "",
    "popularityRank": 53
  },
  {
    "slug": "san-diego-history-center",
    "name": "San Diego History Center",
    "displayName": "History Center",
    "area": "central_mesa",
    "type": "museum",
    "address": "1649 El Prado, San Diego, CA 92101",
    "lat": 32.73116,
    "lng": -117.14827,
    "websiteUrl": "https://www.sandiegohistory.org",
    "hours": "Wed–Sun 10am–5pm",
    "popularityRank": 14
  },
  {
    "slug": "san-diego-junior-theatre",
    "name": "San Diego Junior Theatre",
    "displayName": "Junior Theatre",
    "area": "central_mesa",
    "type": "theater",
    "address": "1650 El Prado, San Diego, CA 92101",
    "lat": 32.73249,
    "lng": -117.14884,
    "websiteUrl": "https://www.juniortheatre.com",
    "hours": "Show times vary",
    "popularityRank": 38
  },
  {
    "slug": "san-diego-model-railroad-museum",
    "name": "San Diego Model Railroad Museum",
    "displayName": "Model Railroad Museum",
    "area": "central_mesa",
    "type": "museum",
    "address": "1649 El Prado, San Diego, CA 92101",
    "lat": 32.73116,
    "lng": -117.14874,
    "websiteUrl": "https://www.sdmrm.org",
    "hours": "Tue–Sun 10am–4pm",
    "popularityRank": 33
  },
  {
    "slug": "san-diego-museum-of-art",
    "name": "San Diego Museum of Art",
    "displayName": "Museum of Art",
    "area": "central_mesa",
    "type": "museum",
    "address": "1450 El Prado, San Diego, CA 92101",
    "lat": 32.73217,
    "lng": -117.15045,
    "websiteUrl": "https://www.sdmart.org",
    "hours": "Thu–Tue 10am–5pm",
    "popularityRank": 4
  },
  {
    "slug": "san-diego-natural-history-museum",
    "name": "San Diego Natural History Museum",
    "displayName": "NAT Museum",
    "area": "central_mesa",
    "type": "museum",
    "address": "1788 El Prado, San Diego, CA 92101",
    "lat": 32.73205,
    "lng": -117.14736,
    "websiteUrl": "https://www.sdnhm.org",
    "hours": "10am–5pm daily",
    "popularityRank": 6
  },
  {
    "slug": "morley-field-velodrome",
    "name": "San Diego Velodrome",
    "displayName": "Velodrome",
    "area": "morley_field",
    "type": "recreation",
    "address": "2221 Morley Field Dr, San Diego, CA 92104",
    "lat": 32.7387,
    "lng": -117.13824,
    "websiteUrl": "https://www.sdvelodrome.com",
    "popularityRank": 75
  },
  {
    "slug": "san-diego-zoo",
    "name": "San Diego Zoo",
    "displayName": "San Diego Zoo",
    "area": "central_mesa",
    "type": "zoo",
    "address": "2920 Zoo Dr, San Diego, CA 92101",
    "lat": 32.7353,
    "lng": -117.149,
    "websiteUrl": "https://zoo.sandiegozoo.org",
    "hours": "9am–5pm daily",
    "popularityRank": 1
  },
  {
    "slug": "spanish-village-art-center",
    "name": "Spanish Village Art Center",
    "displayName": "Spanish Village",
    "area": "central_mesa",
    "type": "landmark",
    "address": "1770 Village Pl, San Diego, CA 92101",
    "lat": 32.73375,
    "lng": -117.14759,
    "websiteUrl": "https://www.spanishvillageart.com",
    "hours": "11am–4pm daily",
    "popularityRank": 15
  },
  {
    "slug": "spreckels-organ-pavilion",
    "name": "Spreckels Organ Pavilion",
    "displayName": "Organ Pavilion",
    "area": "palisades",
    "type": "landmark",
    "address": "1549 El Prado, San Diego, CA 92101",
    "lat": 32.72948,
    "lng": -117.15042,
    "websiteUrl": "https://www.spreckelsorgan.org",
    "hours": "Free concerts Sun 2pm",
    "popularityRank": 9
  },
  {
    "slug": "starlight-bowl",
    "name": "Starlight Bowl",
    "displayName": "Starlight Bowl",
    "area": "pan_american",
    "type": "theater",
    "address": "2005 Pan American Plaza, San Diego, CA 92101",
    "lat": 32.72635,
    "lng": -117.15334,
    "websiteUrl": "",
    "hours": "Show times vary",
    "popularityRank": 49
  },
  {
    "slug": "old-globe-theatre",
    "name": "The Old Globe",
    "displayName": "The Old Globe",
    "area": "palisades",
    "type": "theater",
    "address": "1363 Old Globe Way, San Diego, CA 92101",
    "lat": 32.73226,
    "lng": -117.15227,
    "websiteUrl": "https://www.theoldglobe.org",
    "hours": "Show times vary",
    "popularityRank": 7
  },
  {
    "slug": "the-prado-restaurant",
    "name": "The Prado at Balboa Park",
    "displayName": "The Prado",
    "area": "central_mesa",
    "type": "dining",
    "address": "1549 El Prado, San Diego, CA 92101",
    "lat": 32.73097,
    "lng": -117.14968,
    "websiteUrl": "https://www.pradobalboa.com",
    "hours": "Tue–Sat 11:30am–8pm, Sun 11:30am–7:30pm",
    "popularityRank": 26
  },
  {
    "slug": "timken-museum-of-art",
    "name": "Timken Museum of Art",
    "displayName": "Timken Museum",
    "area": "central_mesa",
    "type": "museum",
    "address": "1500 El Prado, San Diego, CA 92101",
    "lat": 32.73185,
    "lng": -117.14963,
    "websiteUrl": "https://www.timkenmuseum.org",
    "hours": "Wed–Sun 10am–5pm",
    "popularityRank": 13
  },
  {
    "slug": "veterans-museum",
    "name": "Veterans Museum & Memorial Center",
    "displayName": "Veterans Museum",
    "area": "pan_american",
    "type": "museum",
    "address": "2115 Park Blvd, San Diego, CA 92101",
    "lat": 32.7258,
    "lng": -117.14879,
    "websiteUrl": "https://www.veteranmuseum.org",
    "hours": "Wed–Sat 11am–4pm",
    "popularityRank": 47
  },
  {
    "slug": "war-memorial-building",
    "name": "War Memorial Building",
    "displayName": "War Memorial",
    "area": "central_mesa",
    "type": "landmark",
    "address": "3325 Zoo Dr, San Diego, CA 92101",
    "lat": 32.7352,
    "lng": -117.1468,
    "websiteUrl": "https://www.sandiego.gov",
    "popularityRank": 45
  },
  {
    "slug": "worldbeat-cultural-center",
    "name": "WorldBeat Cultural Center",
    "displayName": "WorldBeat Center",
    "area": "pan_american",
    "type": "museum",
    "address": "2100 Park Blvd, San Diego, CA 92101",
    "lat": 32.72721,
    "lng": -117.14957,
    "websiteUrl": "https://www.worldbeatcenter.org",
    "hours": "Fri–Sun 11am–6pm",
    "popularityRank": 46
  },
  {
    "slug": "zoro-garden",
    "name": "Zoro Garden",
    "displayName": "Zoro Garden",
    "area": "central_mesa",
    "type": "garden",
    "address": "Park Blvd, San Diego, CA 92101",
    "lat": 32.73112,
    "lng": -117.1478,
    "websiteUrl": "https://balboapark.org",
    "hours": "Dawn–Dusk",
    "popularityRank": 37
  },
  {
    "slug": "comic-con-museum",
    "name": "Comic-Con Museum",
    "displayName": "Comic-Con Museum",
    "area": "pan_american",
    "type": "museum",
    "address": "2131 Pan American Plaza, San Diego, CA 92101",
    "lat": 32.72728,
    "lng": -117.15241,
    "websiteUrl": "https://www.comic-con.org/museum",
    "hours": "Thu–Tue 10am–5pm",
    "popularityRank": 20
  },
  {
    "slug": "marston-house",
    "name": "Marston House Museum & Gardens",
    "displayName": "Marston House",
    "area": "central_mesa",
    "type": "museum",
    "address": "3525 7th Ave, San Diego, CA 92103",
    "lat": 32.74171,
    "lng": -117.15783,
    "websiteUrl": "https://www.sandiegohistory.org/marston-house",
    "hours": "Fri–Sun 10am–4pm",
    "popularityRank": 48
  },
  {
    "slug": "kate-sessions-cactus-garden",
    "name": "Kate O. Sessions Cactus Garden",
    "displayName": "Cactus Garden",
    "area": "palisades",
    "type": "garden",
    "address": "Pan American Rd, San Diego, CA 92101",
    "lat": 32.72894,
    "lng": -117.15426,
    "websiteUrl": "https://balboapark.org",
    "hours": "Dawn–Dusk",
    "popularityRank": 51
  },
  {
    "slug": "bea-evenson-fountain",
    "name": "Bea Evenson Fountain",
    "displayName": "Bea Evenson Fountain",
    "area": "central_mesa",
    "type": "landmark",
    "address": "1549 El Prado, San Diego, CA 92101",
    "lat": 32.73119,
    "lng": -117.14584,
    "websiteUrl": "https://balboapark.org",
    "popularityRank": 39
  },
  {
    "slug": "plaza-de-panama",
    "name": "Plaza de Panama",
    "displayName": "Plaza de Panama",
    "area": "central_mesa",
    "type": "landmark",
    "address": "El Prado, San Diego, CA 92101",
    "lat": 32.732,
    "lng": -117.15,
    "websiteUrl": "https://balboapark.org",
    "popularityRank": 55
  },
  {
    "slug": "palisades-building",
    "name": "Palisades Building",
    "displayName": "Palisades Building",
    "area": "palisades",
    "type": "landmark",
    "address": "2130 Pan American Plaza, San Diego, CA 92101",
    "lat": 32.72827,
    "lng": -117.1536,
    "websiteUrl": "https://balboapark.org",
    "popularityRank": 52
  },
  {
    "slug": "casa-del-rey-moro-garden",
    "name": "Casa del Rey Moro Garden",
    "displayName": "Casa del Rey Moro",
    "area": "palisades",
    "type": "garden",
    "address": "Pan American Rd, San Diego, CA 92101",
    "lat": 32.7318,
    "lng": -117.15153,
    "websiteUrl": "https://balboapark.org",
    "hours": "Dawn–Dusk",
    "popularityRank": 50
  },
  {
    "slug": "ethnobotany-peace-garden",
    "name": "Ethnobotany Peace Garden",
    "displayName": "Peace Garden",
    "area": "pan_american",
    "type": "garden",
    "address": "2004 Park Blvd, San Diego, CA 92101",
    "lat": 32.72691,
    "lng": -117.14982,
    "websiteUrl": "https://balboapark.org",
    "hours": "Dawn–Dusk",
    "popularityRank": 80
  },
  {
    "slug": "lawn-bowling-green",
    "name": "San Diego Lawn Bowling Club",
    "displayName": "Lawn Bowling",
    "area": "palisades",
    "type": "recreation",
    "address": "Pan American Rd, San Diego, CA 92101",
    "lat": 32.731,
    "lng": -117.157,
    "websiteUrl": "https://balboapark.org",
    "popularityRank": 57
  },
  {
    "slug": "veterans-memorial-garden",
    "name": "Veterans Memorial Garden",
    "displayName": "Veterans Garden",
    "area": "palisades",
    "type": "garden",
    "address": "Pan American Rd, San Diego, CA 92101",
    "lat": 32.7315,
    "lng": -117.156,
    "websiteUrl": "https://balboapark.org",
    "hours": "Dawn–Dusk",
    "popularityRank": 58
  },
  {
    "slug": "trees-for-health-garden",
    "name": "Trees for Health Garden",
    "displayName": "Trees for Health",
    "area": "central_mesa",
    "type": "garden",
    "address": "6th Ave, San Diego, CA 92101",
    "lat": 32.73719,
    "lng": -117.15838,
    "websiteUrl": "https://balboapark.org",
    "hours": "Dawn–Dusk",
    "popularityRank": 61
  },
  {
    "slug": "may-marcy-sculpture-garden",
    "name": "May S. Marcy Sculpture Court & Garden",
    "displayName": "Sculpture Garden",
    "area": "central_mesa",
    "type": "garden",
    "address": "1450 El Prado, San Diego, CA 92101",
    "lat": 32.73182,
    "lng": -117.15153,
    "websiteUrl": "https://www.sdmart.org",
    "hours": "Dawn–Dusk",
    "popularityRank": 56
  },
  {
    "slug": "institute-of-contemporary-art",
    "name": "Institute of Contemporary Art, San Diego",
    "displayName": "ICA San Diego",
    "area": "central_mesa",
    "type": "museum",
    "address": "1439 El Prado, San Diego, CA 92101",
    "lat": 32.73101,
    "lng": -117.15103,
    "websiteUrl": "https://www.icasandiego.org",
    "hours": "Thu–Sun 12–5pm",
    "popularityRank": 40
  },
  {
    "slug": "grape-street-dog-park",
    "name": "Grape Street Dog Park",
    "displayName": "Grape Street Dog Park",
    "area": "east_mesa",
    "type": "recreation",
    "address": "Grape St, San Diego, CA 92102",
    "lat": 32.72621,
    "lng": -117.1348,
    "websiteUrl": "",
    "hours": "Dawn–Dusk",
    "popularityRank": 79
  },
  {
    "slug": "administration-building",
    "name": "Administration Building",
    "displayName": "Admin Building",
    "area": "pan_american",
    "type": "landmark",
    "address": "2125 Park Blvd, San Diego, CA 92101",
    "lat": 32.72668,
    "lng": -117.14771,
    "websiteUrl": "https://balboapark.org",
    "popularityRank": 62
  },
  {
    "slug": "morley-field-dog-park",
    "name": "Morley Field Dog Park",
    "displayName": "Morley Field Dog Park",
    "area": "morley_field",
    "type": "recreation",
    "address": "Morley Field Dr, San Diego, CA 92104",
    "lat": 32.73886,
    "lng": -117.14242,
    "websiteUrl": "",
    "hours": "Dawn–Dusk",
    "popularityRank": 76
  },
  {
    "slug": "california-native-plant-garden",
    "name": "California Native Plant Garden",
    "displayName": "Native Plant Garden",
    "area": "morley_field",
    "type": "garden",
    "address": "Morley Field Dr, San Diego, CA 92104",
    "lat": 32.738,
    "lng": -117.144,
    "websiteUrl": "https://balboapark.org",
    "hours": "Dawn–Dusk",
    "popularityRank": 70
  },
  {
    "slug": "rube-powell-archery-range",
    "name": "Rube Powell Archery Range",
    "displayName": "Archery Range",
    "area": "central_mesa",
    "type": "recreation",
    "address": "Balboa Park, San Diego, CA 92101",
    "lat": 32.7335,
    "lng": -117.155,
    "websiteUrl": "https://balboapark.org",
    "hours": "Dawn–Dusk",
    "popularityRank": 65
  },
  {
    "slug": "golden-hill-recreation-center",
    "name": "Golden Hill Recreation Center",
    "displayName": "Golden Hill Rec Center",
    "area": "east_mesa",
    "type": "recreation",
    "address": "2600 Golf Course Dr, San Diego, CA 92102",
    "lat": 32.7249,
    "lng": -117.1376,
    "websiteUrl": "https://www.sandiego.gov",
    "popularityRank": 77
  },
  {
    "slug": "balboa-park-golf-course",
    "name": "Balboa Park Golf Course",
    "displayName": "Golf Course",
    "area": "east_mesa",
    "type": "recreation",
    "address": "2600 Golf Course Dr, San Diego, CA 92102",
    "lat": 32.725,
    "lng": -117.138,
    "websiteUrl": "https://www.sandiego.gov",
    "hours": "Dawn–Dusk",
    "popularityRank": 78
  }
]
